id,name,address,lat,lon,url_2gis,district
70000001089994206,"Parking, парковка","Алматы, Объект",43.21847,76.842083,https://2gis.kz/almaty/firm/70000001089994206,Алматы
70000001089993664,"Sputnik Mall Parking, парковка","Алматы, Объект",43.212061,76.841764,https://2gis.kz/almaty/firm/70000001089993664,Алматы
70000001054881416,"Magnum Cash & Carry, парковка","Алматы, Объект",43.218012,76.843055,https://2gis.kz/almaty/firm/70000001054881416,Алматы
9429940001435690,"Автостоянка, ИП Байтереков","Алматы, микрорайон Мамыр-4, 1д",43.216626,76.840975,https://2gis.kz/almaty/firm/9429940001435690,Алматы
70000001057444517,Автостоянка,"Алматы, Объект",43.211863,76.834533,https://2gis.kz/almaty/firm/70000001057444517,Алматы
70000001091226673,Паркинг,Алматы,43.212865,76.841878,https://2gis.kz/almaty/firm/70000001091226673,Алматы
70000001112820172,Платная парковка,"Алматы, Объект",43.188338,76.830027,https://2gis.kz/almaty/firm/70000001112820172,Алматы
70000001113612995,Парковка,"Алматы, Объект",43.218299,76.843972,https://2gis.kz/almaty/firm/70000001113612995,Алматы
70000001083442129,"Arilan Energy, станция зарядки электромобилей","Алматы, Объект",43.212876,76.841525,https://2gis.kz/almaty/firm/70000001083442129,Алматы
9430468281761879,,Алматы,43.213766,76.832982,https://2gis.kz/almaty/firm/9430468281761879,Алматы
9429940001179723,"Орбита-3, автостоянка","Алматы, Объект",43.198342,76.877667,https://2gis.kz/almaty/firm/9429940001179723,Алматы
9429940001192409,"Таугуль, автостоянка","Алматы, Объект",43.214599,76.875299,https://2gis.kz/almaty/firm/9429940001192409,Алматы
9429940001520633,Автостоянка,"Алматы, улица Рыскулбекова, 30",43.204904,76.872138,https://2gis.kz/almaty/firm/9429940001520633,Алматы
70000001101277349,Подземный платный паркинг,Алматы,43.214345,76.857201,https://2gis.kz/almaty/firm/70000001101277349,Алматы
70000001101414052,"Parqour, парковка ТРЦ Almaty Mall","Алматы, Объект",43.207483,76.859152,https://2gis.kz/almaty/firm/70000001101414052,Алматы
70000001114434917,"AI Parking, платная парковка","Алматы, Объект",43.199819,76.878867,https://2gis.kz/almaty/firm/70000001114434917,Алматы
70000001054847670,Парковка ТД Nur,"Алматы, Объект",43.199119,76.879991,https://2gis.kz/almaty/firm/70000001054847670,Алматы
70000001101603854,Парковка ТЦ Qaratau,"Алматы, Объект",43.204802,76.87803,https://2gis.kz/almaty/firm/70000001101603854,Алматы
9430468281761823,Парковка ТЦ Мамыр,"Алматы, Парковка ТЦ Мамыр",43.215608,76.854623,https://2gis.kz/almaty/firm/9430468281761823,Алматы
70000001057445211,Парковка ТРК Mega Center Alma-Ata,"Алматы, Объект",43.202048,76.893458,https://2gis.kz/almaty/firm/70000001057445211,Алматы
70000001057442408,Парковка №1006,"Алматы, Объект",43.192238,76.889054,https://2gis.kz/almaty/firm/70000001057442408,Алматы
9429940001704788,"Алмагуль, автостоянка","Алматы, улица Жарокова, 284",43.205901,76.90519,https://2gis.kz/almaty/firm/9429940001704788,Алматы
9429940001206213,"Тума, автостоянка","Алматы, улица Абиша Кекилбайулы, 30Б",43.207986,76.88956,https://2gis.kz/almaty/firm/9429940001206213,Алматы
70000001057445227,Парковка ТРЦ Mega Alma-Ata,"Алматы, Объект",43.20029,76.893531,https://2gis.kz/almaty/firm/70000001057445227,Алматы
70000001090589388,"MyCharge, ​станция зарядки для электромобилей","Алматы, улица Розыбакиева, 247г",43.203074,76.893903,https://2gis.kz/almaty/firm/70000001090589388,Алматы
9430468281761864,Парковка ТРЦ Mega Alma-Ata,"Алматы, Парковка ТРЦ Mega Alma-Ata",43.201569,76.892161,https://2gis.kz/almaty/firm/9430468281761864,Алматы
70000001113799972,"Urban parking, платная парковка","Алматы, Объект",43.208516,76.893556,https://2gis.kz/almaty/firm/70000001113799972,Алматы
70000001057445230,Паркомат,Алматы,43.201295,76.892107,https://2gis.kz/almaty/firm/70000001057445230,Алматы
70000001113724868,"Parqour, платная парковка","Алматы, Объект",43.208862,76.890029,https://2gis.kz/almaty/firm/70000001113724868,Алматы
70000001113755448,"Urban parking, парковка Estet","Алматы, Объект",43.207904,76.891634,https://2gis.kz/almaty/firm/70000001113755448,Алматы
9429940001709461,"Ардагер, автостоянка","Алматы, Утепова улица, 29/10",43.218878,76.888877,https://2gis.kz/almaty/firm/9429940001709461,Алматы
70030077099765875,Парковка подземная большая,"Алматы, Парковка подземная большая",43.207018,76.911874,https://2gis.kz/almaty/firm/70030077099765875,Алматы
70000001096763088,"Parqour, парковка МФК Villa","Алматы, Объект",43.211602,76.920252,https://2gis.kz/almaty/firm/70000001096763088,Алматы
70000001090406110,"Almaty Parking, парковка №4012","Алматы, Объект",43.220134,76.90177,https://2gis.kz/almaty/firm/70000001090406110,Алматы
70000001094571069,Парковка БЦ Fortis,"Алматы, Объект",43.20985,76.907939,https://2gis.kz/almaty/firm/70000001094571069,Алматы
70000001101528534,Парковка БЦ Азия-Мост,"Алматы, Объект",43.218113,76.906076,https://2gis.kz/almaty/firm/70000001101528534,Алматы
70030077077118424,3,"Алматы, 3",43.193233,76.906614,https://2gis.kz/almaty/firm/70030077077118424,Алматы
9430468281762020,Парковка ВУЗ Нур-Мубарак,"Алматы, Парковка ВУЗ Нур-Мубарак",43.211869,76.918389,https://2gis.kz/almaty/firm/9430468281762020,Алматы
70000001083525256,"Tol.Charge, станция зарядки электромобилей","Алматы, Объект",43.203298,76.977048,https://2gis.kz/almaty/firm/70000001083525256,Алматы
70000001083740905,"Connect ev, станция зарядки электромобилей","Алматы, Объект",43.198827,76.979398,https://2gis.kz/almaty/firm/70000001083740905,Алматы
9429940001492749,"Жолай-1, автостоянка","Алматы, микрорайон Жетысу-2, 3/3",43.222533,76.844572,https://2gis.kz/almaty/firm/9429940001492749,Алматы
9429940001588606,Автостоянка,"Алматы, микрорайон Аксай-1, 26а",43.241479,76.830143,https://2gis.kz/almaty/firm/9429940001588606,Алматы
9430468281761993,Парковка гипермаркета Метро,"Алматы, Парковка гипермаркета Метро",43.240587,76.840401,https://2gis.kz/almaty/firm/9430468281761993,Алматы
70000001054847834,Парковка ТК Армада,"Алматы, Объект",43.235689,76.846224,https://2gis.kz/almaty/firm/70000001054847834,Алматы
70000001054953334,Парковка ТРК Grand Park,"Алматы, Объект",43.237244,76.8513,https://2gis.kz/almaty/firm/70000001054953334,Алматы
70000001110935749,Парковка супермаркета Арзан,"Алматы, Объект",43.241834,76.818862,https://2gis.kz/almaty/firm/70000001110935749,Алматы
70000001034258342,Автостоянка,"Алматы, микрорайон Аксай-5, 1/1",43.230165,76.832973,https://2gis.kz/almaty/firm/70000001034258342,Алматы
70000001054954213,Парковка ТЦ Car City,"Алматы, Объект",43.238217,76.822668,https://2gis.kz/almaty/firm/70000001054954213,Алматы
70000001057442498,Парковка ТЦ AutoCity,"Алматы, Объект",43.237373,76.823808,https://2gis.kz/almaty/firm/70000001057442498,Алматы
70000001060176003,Парковка ТД Car City,"Алматы, Объект",43.23788,76.823266,https://2gis.kz/almaty/firm/70000001060176003,Алматы
70000001091814421,Паркинг,"Алматы, Объект",43.230402,76.84064,https://2gis.kz/almaty/firm/70000001091814421,Алматы
9430468281761934,Парковка ТД Нур,"Алматы, Парковка ТД Нур",43.225763,76.840427,https://2gis.kz/almaty/firm/9430468281761934,Алматы
70000001054874402,Парковка ТРК АДК,"Алматы, Объект",43.232309,76.877023,https://2gis.kz/almaty/firm/70000001054874402,Алматы
9429940000791465,Автостоянка №26,"Алматы, улица Толе би, 287г",43.244332,76.849427,https://2gis.kz/almaty/firm/9429940000791465,Алматы
9429940000799990,"Сайран-2, автостоянка","Алматы, 5-й микрорайон, 40Б",43.234149,76.865536,https://2gis.kz/almaty/firm/9429940000799990,Алматы
70000001057443666,Автостоянка ТРЦ Moscva Metropolitan,"Алматы, Объект",43.228414,76.864907,https://2gis.kz/almaty/firm/70000001057443666,Алматы
70000001057444784,Автостоянка,"Алматы, 7-й микрорайон, 30а",43.223411,76.86282,https://2gis.kz/almaty/firm/70000001057444784,Алматы
70000001059569345,Парковка ТРЦ ADK,"Алматы, Объект",43.233525,76.879983,https://2gis.kz/almaty/firm/70000001059569345,Алматы
70000001101613961,Парковка ТРЦ Riviera Park,"Алматы, улица Каныша Сатпаева, 90/27",43.231868,76.874299,https://2gis.kz/almaty/firm/70000001101613961,Алматы
9429940001384975,Автостоянка,"Алматы, 5-й микрорайон, 45Б",43.229265,76.862408,https://2gis.kz/almaty/firm/9429940001384975,Алматы
70000001024862050,"Автостоянка, ИП Софиев","Алматы, Объект",43.241869,76.851566,https://2gis.kz/almaty/firm/70000001024862050,Алматы
70000001094644584,Eurasia motors city,"Алматы, Объект",43.244844,76.854663,https://2gis.kz/almaty/firm/70000001094644584,Алматы
9429940000791360,"Авиатор, автостоянка","Алматы, 12-й микрорайон, 20д",43.220995,76.865132,https://2gis.kz/almaty/firm/9429940000791360,Алматы
9429940001681720,"Астерия Сервис, автостоянка","Алматы, 12-й микрорайон, 17а/1",43.222585,76.861471,https://2gis.kz/almaty/firm/9429940001681720,Алматы
70000001054954379,Автостоянка,"Алматы, улица Розыбакиева, 103в",43.231412,76.888939,https://2gis.kz/almaty/firm/70000001054954379,Алматы
70000001094799026,"Alva, станция зарядки электромобилей","Алматы, Объект",43.237451,76.881078,https://2gis.kz/almaty/firm/70000001094799026,Алматы
70000001110950980,"Almaty Parking, парковка №4002","Алматы, Объект",43.233191,76.904707,https://2gis.kz/almaty/firm/70000001110950980,Алматы
9429940001583305,"Car Land Parking, автостоянка","Алматы, Ораза Жандосова улица, 33д / улица Розыбакиева, 109Б/1",43.229505,76.88833,https://2gis.kz/almaty/firm/9429940001583305,Алматы
70000001089355119,"Parqour, парковка отеля Best Western Plus",Алматы,43.225133,76.905342,https://2gis.kz/almaty/firm/70000001089355119,Алматы
70000001059569125,Парковка ТД Саламат,"Алматы, Объект",43.24298,76.889384,https://2gis.kz/almaty/firm/70000001059569125,Алматы
70000001110968227,"Almaty Parking, парковка №2020","Алматы, Объект",43.242828,76.877643,https://2gis.kz/almaty/firm/70000001110968227,Алматы
70000001112811489,"Sergek parking, парковка","Алматы, Объект",43.239926,76.893929,https://2gis.kz/almaty/firm/70000001112811489,Алматы
70000001110950804,"Almaty Parking, парковка №2013","Алматы, Объект",43.244089,76.88988,https://2gis.kz/almaty/firm/70000001110950804,Алматы
70000001054892257,Автостоянка,"Алматы, улица Ислама Каримова, 220/1",43.237227,76.885502,https://2gis.kz/almaty/firm/70000001054892257,Алматы
70000001114343133,"Parqour, парковка ЖК O'Ner","Алматы, Объект",43.240234,76.882818,https://2gis.kz/almaty/firm/70000001114343133,Алматы
70000001030639839,Автостоянка,"Алматы, улица Айманова, 159",43.234489,76.897521,https://2gis.kz/almaty/firm/70000001030639839,Алматы
70000001090151614,"Almaty Parking, парковка №6029","Алматы, Объект",43.237286,76.902529,https://2gis.kz/almaty/firm/70000001090151614,Алматы
70000001054917224,Парковка ТРК Глобус,"Алматы, Объект",43.240032,76.905234,https://2gis.kz/almaty/firm/70000001054917224,Алматы
70000001057442405,Автостоянка,Алматы,43.238662,76.925971,https://2gis.kz/almaty/firm/70000001057442405,Алматы
70000001110950762,"Almaty Parking, парковка №2014","Алматы, Объект",43.24365,76.906279,https://2gis.kz/almaty/firm/70000001110950762,Алматы
70030076129532562,Парковка ВУЗ КазНУ,"Алматы, Парковка ВУЗ КазНУ",43.222827,76.923609,https://2gis.kz/almaty/firm/70030076129532562,Алматы
70000001110950996,"Almaty Parking, парковка №4028","Алматы, Объект",43.236767,76.904215,https://2gis.kz/almaty/firm/70000001110950996,Алматы
70000001054917371,Парковка БЦ Almaty Towers,"Алматы, Объект",43.237438,76.914413,https://2gis.kz/almaty/firm/70000001054917371,Алматы
70000001089790730,"Almaty Parking, парковка №4003","Алматы, Объект",43.240326,76.921005,https://2gis.kz/almaty/firm/70000001089790730,Алматы
70000001095124148,"Almaty Parking, парковка №4029","Алматы, Объект",43.237461,76.903572,https://2gis.kz/almaty/firm/70000001095124148,Алматы
70000001110906180,Парковка БЦ Нурлы Тау,"Алматы, Объект",43.232423,76.945307,https://2gis.kz/almaty/firm/70000001110906180,Алматы
70000001089530729,"Almaty Parking, парковка №2016","Алматы, Объект",43.24265,76.93077,https://2gis.kz/almaty/firm/70000001089530729,Алматы
70000001091770674,"Almaty Parking, парковка №2017","Алматы, Объект",43.244116,76.93847,https://2gis.kz/almaty/firm/70000001091770674,Алматы
70000001110966189,"Almaty Parking, парковка №2018","Алматы, Объект",43.243213,76.942833,https://2gis.kz/almaty/firm/70000001110966189,Алматы
9429940000794505,"Горный, автостоянка","Алматы, улица Зеина Шашкина, 36/1",43.220757,76.938259,https://2gis.kz/almaty/firm/9429940000794505,Алматы
70030077075115615,подземная парковка,"Алматы, подземная парковка",43.22777,76.936527,https://2gis.kz/almaty/firm/70030077075115615,Алматы
70000001057443367,"Almaty Parking, парковка №6021","Алматы, Объект",43.238747,76.950354,https://2gis.kz/almaty/firm/70000001057443367,Алматы
70000001097175310,"Almaty Parking, парковка №4801","Алматы, Объект",43.2285,76.946131,https://2gis.kz/almaty/firm/70000001097175310,Алматы
70000001098489799,"Shafran, парковка","Алматы, Объект",43.230522,76.935912,https://2gis.kz/almaty/firm/70000001098489799,Алматы
70000001102686196,"Urban parking, парковка БЦ Нурлы Тау","Алматы, Объект",43.231572,76.94479,https://2gis.kz/almaty/firm/70000001102686196,Алматы
70000001057445410,Парковка МФК Samal Moll,"Алматы, Объект",43.232551,76.9512,https://2gis.kz/almaty/firm/70000001057445410,Алматы
70000001113772931,"Elpark, парковка Almaty Theatre","Алматы, Объект",43.227304,76.946036,https://2gis.kz/almaty/firm/70000001113772931,Алматы
70000001021580497,Автостоянка,"Алматы, улица Зеина Шашкина, 32Б/1",43.221297,76.937007,https://2gis.kz/almaty/firm/70000001021580497,Алматы
70000001110968611,"Almaty Parking, парковка №4004","Алматы, Объект",43.24098,76.934517,https://2gis.kz/almaty/firm/70000001110968611,Алматы
70030077129151583,Парковка Бесплатная,"Алматы, Парковка Бесплатная",43.224898,76.934846,https://2gis.kz/almaty/firm/70030077129151583,Алматы
9430468281761834,Парковка БЦ Нурлы Тау,"Алматы, Парковка БЦ Нурлы Тау",43.229124,76.947442,https://2gis.kz/almaty/firm/9430468281761834,Алматы
70000001054953038,Платная парковка,Алматы,43.24047,76.925454,https://2gis.kz/almaty/firm/70000001054953038,Алматы
70000001110969820,"Almaty Parking, парковка №4006","Алматы, Объект",43.232626,76.947555,https://2gis.kz/almaty/firm/70000001110969820,Алматы
70000001054953214,Подземная парковка ТРЦ Достык Плаза,"Алматы, Подземная парковка ТРЦ Достык Плаза",43.232612,76.956927,https://2gis.kz/almaty/firm/70000001054953214,Алматы
70000001057445189,"Almaty Parking, парковка №4005","Алматы, Объект",43.237308,76.94833,https://2gis.kz/almaty/firm/70000001057445189,Алматы
70000001054917623,Парковка ТРЦ Достык Плаза,"Алматы, Объект",43.232729,76.956713,https://2gis.kz/almaty/firm/70000001054917623,Алматы
70000001054875981,Парковка ТРЦ Ритц-Палас,"Алматы, Объект",43.228294,76.959928,https://2gis.kz/almaty/firm/70000001054875981,Алматы
9430047408908470,"проспект Достык, 56/1","Алматы, проспект Достык, 56/1",43.243556,76.957925,https://2gis.kz/almaty/firm/9430047408908470,Алматы
70000001110950902,"Almaty Parking, парковка №6015","Алматы, Объект",43.244121,76.956656,https://2gis.kz/almaty/firm/70000001110950902,Алматы
70000001077789484,Парковка ТК Евразия,"Алматы, Объект",43.234489,76.955676,https://2gis.kz/almaty/firm/70000001077789484,Алматы
70000001090152171,"Almaty Parking, парковка №6020","Алматы, Объект",43.240855,76.957303,https://2gis.kz/almaty/firm/70000001090152171,Алматы
70000001111018891,Крытая парковка Koktem Grand,Алматы,43.230286,76.960515,https://2gis.kz/almaty/firm/70000001111018891,Алматы
70000001054847567,Парковка ТЦ Colibri,"Алматы, Объект",43.240132,76.954576,https://2gis.kz/almaty/firm/70000001054847567,Алматы
70000001110219021,Парковка Koktem Grand,"Алматы, Объект",43.229442,76.961083,https://2gis.kz/almaty/firm/70000001110219021,Алматы
70000001102945982,"Maksat Med, парковка","Алматы, Объект",43.254395,76.822232,https://2gis.kz/almaty/firm/70000001102945982,Алматы
70000001101402689,Парковка ТЦ Alatau Plaza,"Алматы, Объект",43.260868,76.851601,https://2gis.kz/almaty/firm/70000001101402689,Алматы
70000001101413914,Парковка ТЦ Бакорда,"Алматы, Объект",43.261385,76.853716,https://2gis.kz/almaty/firm/70000001101413914,Алматы
70000001111579415,Парковка супермаркета Magnum Cash & Carry,"Алматы, Объект",43.25044,76.824184,https://2gis.kz/almaty/firm/70000001111579415,Алматы
70000001086720942,"Evs, компания","Алматы, Объект",43.261983,76.816229,https://2gis.kz/almaty/firm/70000001086720942,Алматы
70000001090078135,"Almaty Parking, парковка №2021","Алматы, Объект",43.247778,76.876994,https://2gis.kz/almaty/firm/70000001090078135,Алматы
9430047375175870,"улица Фурката, 15","Алматы, улица Фурката, 15",43.25102,76.858169,https://2gis.kz/almaty/firm/9430047375175870,Алматы
70000001088456887,"Almaty Parking, парковка №4021","Алматы, Объект",43.248966,76.879309,https://2gis.kz/almaty/firm/70000001088456887,Алматы
70000001113619759,"Almaty Parking, парковка №3802","Алматы, Объект",43.246004,76.858658,https://2gis.kz/almaty/firm/70000001113619759,Алматы
70000001057443788,Автостоянка,"Алматы, улица Карасай батыра, 152Б",43.248467,76.906176,https://2gis.kz/almaty/firm/70000001057443788,Алматы
70000001101626912,Парковка ТРК Maxima,"Алматы, Объект",43.264028,76.900254,https://2gis.kz/almaty/firm/70000001101626912,Алматы
70000001093698072,"Almaty Parking, парковка №2024","Алматы, Объект",43.257641,76.887346,https://2gis.kz/almaty/firm/70000001093698072,Алматы
70000001110965477,Парковка ТК Жулдыз,"Алматы, Объект",43.258039,76.886815,https://2gis.kz/almaty/firm/70000001110965477,Алматы
70000001054882238,"Parqour, парковка ТД Тумар","Алматы, Объект",43.252722,76.900798,https://2gis.kz/almaty/firm/70000001054882238,Алматы
70000001054882568,Парковка ТЦ ToiMart,"Алматы, Объект",43.255939,76.887552,https://2gis.kz/almaty/firm/70000001054882568,Алматы
70000001090234759,"Almaty Parking, парковка №2011","Алматы, Объект",43.247795,76.902767,https://2gis.kz/almaty/firm/70000001090234759,Алматы
70000001057443382,"Almaty Parking, парковка №2004","Алматы, Объект",43.25575,76.929019,https://2gis.kz/almaty/firm/70000001057443382,Алматы
70000001019155915,Автостоянка,"Алматы, улица Ураза Исаева, 140",43.248026,76.909932,https://2gis.kz/almaty/firm/70000001019155915,Алматы
70000001101612553,Парковка ТЦ City Center,"Алматы, Объект",43.252311,76.911828,https://2gis.kz/almaty/firm/70000001101612553,Алматы
70000001110968782,"Almaty Parking, парковка №2015","Алматы, Объект",43.244474,76.917923,https://2gis.kz/almaty/firm/70000001110968782,Алматы
70000001083661153,Паркинг БЦ Гермес,"Алматы, улица Муратбаева, 180/1",43.247147,76.920277,https://2gis.kz/almaty/firm/70000001083661153,Алматы
70000001090075383,"Almaty Parking, парковка №2009","Алматы, Объект",43.250153,76.928806,https://2gis.kz/almaty/firm/70000001090075383,Алматы
70000001100259399,Парковка БЦ Tolebi 101,"Алматы, Объект",43.253751,76.924823,https://2gis.kz/almaty/firm/70000001100259399,Алматы
70000001083475454,"Almaty Parking, парковка №2010","Алматы, Объект",43.249856,76.9219,https://2gis.kz/almaty/firm/70000001083475454,Алматы
70000001104944590,"Aula.pass, платная парковка","Алматы, Объект",43.254941,76.925984,https://2gis.kz/almaty/firm/70000001104944590,Алматы
70030076861608325,Парковка,"Алматы, Парковка",43.257023,76.932588,https://2gis.kz/almaty/firm/70030076861608325,Алматы
9429940001288516,"Маржан Н., автостоянка","Алматы, улица Уалиханова, 49",43.261635,76.95065,https://2gis.kz/almaty/firm/9429940001288516,Алматы
70000001110950049,"Almaty Parking, парковка №2043","Алматы, Объект",43.264954,76.941372,https://2gis.kz/almaty/firm/70000001110950049,Алматы
70000001057444345,Парковка ТРК Mega Park,"Алматы, Объект",43.264952,76.929322,https://2gis.kz/almaty/firm/70000001057444345,Алматы
9430047375177126,"проспект Назарбаева, 50/1","Алматы, проспект Назарбаева, 50/1",43.261361,76.94659,https://2gis.kz/almaty/firm/9430047375177126,Алматы
70000001057443905,"Almaty Parking, парковка №6014","Алматы, Объект",43.249876,76.948222,https://2gis.kz/almaty/firm/70000001057443905,Алматы
70000001089496699,"Almaty Parking, парковка №2047","Алматы, Объект",43.260722,76.944123,https://2gis.kz/almaty/firm/70000001089496699,Алматы
70000001087008975,"Almaty Parking, парковка №2046","Алматы, Объект",43.261495,76.93785,https://2gis.kz/almaty/firm/70000001087008975,Алматы
70000001057444134,"Almaty Parking, парковка №2005","Алматы, Объект",43.257607,76.936701,https://2gis.kz/almaty/firm/70000001057444134,Алматы
70000001094185816,"Almaty Parking, парковка №2006","Алматы, Объект",43.25964,76.942117,https://2gis.kz/almaty/firm/70000001094185816,Алматы
70000001057445447,"Almaty Parking, парковка №2042","Алматы, Объект",43.266087,76.934894,https://2gis.kz/almaty/firm/70000001057445447,Алматы
70000001057444157,"Small, платная парковка","Алматы, Объект",43.264793,76.949277,https://2gis.kz/almaty/firm/70000001057444157,Алматы
70000001088126612,"Almaty Parking, парковка №6058","Алматы, Объект",43.263683,76.947445,https://2gis.kz/almaty/firm/70000001088126612,Алматы
70000001057445108,"Almaty Parking, парковка №6001","Алматы, Объект",43.261615,76.951029,https://2gis.kz/almaty/firm/70000001057445108,Алматы
70000001094185870,"Almaty Parking, парковка №2007","Алматы, Объект",43.252849,76.940851,https://2gis.kz/almaty/firm/70000001094185870,Алматы
70000001057443832,Паркинги,Алматы,43.253238,76.939088,https://2gis.kz/almaty/firm/70000001057443832,Алматы
70000001057445266,"Almaty Parking, парковка №6013","Алматы, Объект",43.252987,76.953901,https://2gis.kz/almaty/firm/70000001057445266,Алматы
70000001110951002,"Almaty Parking, парковка №6012","Алматы, Объект",43.251446,76.955717,https://2gis.kz/almaty/firm/70000001110951002,Алматы
70000001089734586,"Almaty Parking, парковка №6002","Алматы, Объект",43.256886,76.949077,https://2gis.kz/almaty/firm/70000001089734586,Алматы
70000001110965911,"Almaty Parking, парковка №6047","Алматы, Объект",43.264309,76.948502,https://2gis.kz/almaty/firm/70000001110965911,Алматы
70000001087680328,"Almaty Parking, парковка №2008","Алматы, Объект",43.251569,76.933255,https://2gis.kz/almaty/firm/70000001087680328,Алматы
70000001110950051,"Almaty Parking, парковка №6011","Алматы, Объект",43.25662,76.947284,https://2gis.kz/almaty/firm/70000001110950051,Алматы
70000001110958924,Парковка гостиницы Rixos,"Алматы, Объект",43.249941,76.934617,https://2gis.kz/almaty/firm/70000001110958924,Алматы
70000001091227001,Паркинг,"Алматы, Парковка ТРЦ Mega Park",43.26399,76.929648,https://2gis.kz/almaty/firm/70000001091227001,Алматы
9430047375177008,"улица Макатаева, 45/1","Алматы, улица Макатаева, 45/1",43.265458,76.955599,https://2gis.kz/almaty/firm/9430047375177008,Алматы
70000001054952875,Парковка ТЦ ГУМ,"Алматы, Объект",43.266966,76.947811,https://2gis.kz/almaty/firm/70000001054952875,Алматы
70000001110950110,"Almaty Parking, парковка №6547","Алматы, Объект",43.264492,76.954816,https://2gis.kz/almaty/firm/70000001110950110,Алматы
70000001101611796,Парковка ТЦ Silk Way City,"Алматы, Объект",43.254497,76.9371,https://2gis.kz/almaty/firm/70000001101611796,Алматы
70000001101413784,Парковка ТЦ Ялян,"Алматы, Объект",43.28875,76.889817,https://2gis.kz/almaty/firm/70000001101413784,Алматы
70000001054918941,Парковка ТЦ Байсат,"Алматы, Объект",43.285237,76.888616,https://2gis.kz/almaty/firm/70000001054918941,Алматы
70000001057445317,"Almaty Parking, парковка №1804","Алматы, Объект",43.292578,76.890712,https://2gis.kz/almaty/firm/70000001057445317,Алматы
70000001094488338,"Almaty Parking, парковка №5801","Алматы, Объект",43.278822,76.887558,https://2gis.kz/almaty/firm/70000001094488338,Алматы
70000001057445326,"Almaty Parking, парковка №5802","Алматы, Объект",43.286178,76.889001,https://2gis.kz/almaty/firm/70000001057445326,Алматы
70000001057445293,Парковка ТЦ Стройсити,"Алматы, Объект",43.271632,76.881391,https://2gis.kz/almaty/firm/70000001057445293,Алматы
70000001057445320,"Almaty Parking, парковка №9003","Алматы, Объект",43.292941,76.891961,https://2gis.kz/almaty/firm/70000001057445320,Алматы
70000001057445380,Парковка ТД Алтын — Тараз,Алматы,43.272874,76.938395,https://2gis.kz/almaty/firm/70000001057445380,Алматы
70000001110926390,Парковка ТК Мерей,"Алматы, Объект",43.272045,76.94915,https://2gis.kz/almaty/firm/70000001110926390,Алматы
70000001089402076,"Almaty Parking, парковка №5033","Алматы, Объект",43.271568,76.939439,https://2gis.kz/almaty/firm/70000001089402076,Алматы
70000001110958679,"Parqour, парковка ТК Мерей","Алматы, Объект",43.275582,76.946279,https://2gis.kz/almaty/firm/70000001110958679,Алматы
9430468309911129,Парковка ТД Алтын-Тараз,"Алматы, Парковка ТД Алтын-Тараз",43.27284,76.93763,https://2gis.kz/almaty/firm/9430468309911129,Алматы
70000001057442630,Парковка №1001,"Алматы, Объект",43.264791,76.947367,https://2gis.kz/almaty/firm/70000001057442630,Алматы
70000001057443902,"Almaty Parking, парковка №2045","Алматы, Объект",43.262969,76.929431,https://2gis.kz/almaty/firm/70000001057443902,Алматы
70000001057442694,Almaty Parking,"Алматы, Объект",43.263545,76.952733,https://2gis.kz/almaty/firm/70000001057442694,Алматы
70000001057445254,"Almaty Parking, парковка№6547","Алматы, Объект",43.262682,76.954012,https://2gis.kz/almaty/firm/70000001057445254,Алматы
70000001110970927,Парковка ТЦ Мизам,"Алматы, Объект",43.30764,76.89738,https://2gis.kz/almaty/firm/70000001110970927,Алматы
70000001110712619,"Барыс, паркинг","Алматы, Объект",43.29883,76.896107,https://2gis.kz/almaty/firm/70000001110712619,Алматы
70000001105343845,"Almaty Parking, парковка №1805","Алматы, Объект",43.298753,76.893313,https://2gis.kz/almaty/firm/70000001105343845,Алматы
70000001057442634,"Almaty Parking, Парковка №1806","Алматы, Объект",43.300692,76.894082,https://2gis.kz/almaty/firm/70000001057442634,Алматы
9429940001304278,"Акниет, автостоянка","Алматы, Объект",43.301827,76.898687,https://2gis.kz/almaty/firm/9429940001304278,Алматы
70000001057445308,"Almaty Parking, парковка №9008","Алматы, Объект",43.296153,76.892201,https://2gis.kz/almaty/firm/70000001057445308,Алматы
70000001057445314,Парковка №9003,"Алматы, Объект",43.294503,76.892594,https://2gis.kz/almaty/firm/70000001057445314,Алматы
70000001105344258,"Almaty Parking, парковка №5804","Алматы, Объект",43.296003,76.893193,https://2gis.kz/almaty/firm/70000001105344258,Алматы
70000001103749341,"Almaty Parking, парковка №1808","Алматы, Объект",43.317329,76.902629,https://2gis.kz/almaty/firm/70000001103749341,Алматы
70000001057445413,"Almaty Parking, парковка №1807","Алматы, Объект",43.315991,76.902046,https://2gis.kz/almaty/firm/70000001057445413,Алматы
70000001023006579,Автостоянка,"Алматы, улица Казыбаева, 272а/3",43.305486,76.920368,https://2gis.kz/almaty/firm/70000001023006579,Алматы
9429940001665348,Автостоянка,"Алматы, микрорайон Кулагер, 51/1",43.306911,76.922059,https://2gis.kz/almaty/firm/9429940001665348,Алматы
70000001048877272,Автостоянка,"Алматы, проспект Сейфуллина, 174/6",43.307319,76.941191,https://2gis.kz/almaty/firm/70000001048877272,Алматы
9430468281762278,Парковка супермаркета Magnum,"Алматы, Парковка супермаркета Magnum",43.293857,76.951408,https://2gis.kz/almaty/firm/9430468281762278,Алматы
70000001089572569,"Баум Парк, станция зарядки для электромобилей","Алматы, Объект",43.314732,76.956771,https://2gis.kz/almaty/firm/70000001089572569,Алматы
70030077107548576,Парковка ресторана Qazagym,"Алматы, Парковка ресторана Qazagym",43.335859,76.832583,https://2gis.kz/almaty/firm/70030077107548576,Алматы
70000001081251599,Парковка ТК Белес,"Алматы, Объект",43.319878,76.915031,https://2gis.kz/almaty/firm/70000001081251599,Алматы
70000001019928684,Автостоянка,"Алматы, микрорайон Айнабулак-3, 129Б/1",43.325915,76.922325,https://2gis.kz/almaty/firm/70000001019928684,Алматы
9429940000794745,"Дария, автостоянка","Алматы, Автостоянка",43.323077,76.922268,https://2gis.kz/almaty/firm/9429940000794745,Алматы
70000001037177460,Автостоянка,"Алматы, микрорайон Айнабулак-3, 166/1",43.325426,76.917337,https://2gis.kz/almaty/firm/70000001037177460,Алматы
9429940001626088,Автостоянка,"Алматы, микрорайон Айнабулак-1, 22в/1",43.321247,76.91029,https://2gis.kz/almaty/firm/9429940001626088,Алматы
70000001029771277,"Ветеран 1, автостоянка","Алматы, микрорайон Айнабулак-2, 71Б/4",43.320225,76.914561,https://2gis.kz/almaty/firm/70000001029771277,Алматы
70000001090548119,"Almaty Parking, парковка №8046","Алматы, Объект",43.331214,76.95304,https://2gis.kz/almaty/firm/70000001090548119,Алматы
9429940001617886,"CTC Stoun Group, автостоянка","Алматы, Объект",43.340881,76.94777,https://2gis.kz/almaty/firm/9429940001617886,Алматы
9430468281761839,Парковка ТРЦ Март,"Алматы, Парковка ТРЦ Март",43.335796,76.953103,https://2gis.kz/almaty/firm/9430468281761839,Алматы
9430468281761827,Парковка СК Жибек Жолы,"Алматы, Парковка СК Жибек Жолы",43.336817,76.946192,https://2gis.kz/almaty/firm/9430468281761827,Алматы
70000001026700099,"Мадина, автостоянка","Алматы, Магнитная улица, 12а",43.33649,76.975439,https://2gis.kz/almaty/firm/70000001026700099,Алматы
70000001090589276,"MyCharge, ​станция зарядки для электромобилей","Алматы, проспект Суюнбая, 245в",43.320648,76.958659,https://2gis.kz/almaty/firm/70000001090589276,Алматы
70000001110848296,Парковка рынка Турксиб,"Алматы, Объект",43.322644,76.959474,https://2gis.kz/almaty/firm/70000001110848296,Алматы
